[
  {
    "id": "fallback-1",
    "name": "Central Park Running Club",
    "category": "Athletic club",
    "phone": "(555) 123-4567",
    "full_address": "1234 Central Park West, New York, NY 10025",
    "city": "New York",
    "postal_code": "10025",
    "latitude": 40.7829,
    "longitude": -73.9654,
    "rating": 4.5,
    "reviews": 123,
    "description": "Join us for regular runs around Central Park with runners of all levels. We meet every Tuesday and Thursday at 6:30 PM and Sunday at 8:00 AM.",
    "email_1": "info@cprunning.com"
  },
  {
    "id": "fallback-2",
    "name": "Brooklyn Bridge Runners",
    "category": "Athletic club",
    "phone": "(555) 987-6543",
    "full_address": "567 Brooklyn Heights Promenade, Brooklyn, NY 11201",
    "city": "Brooklyn",
    "postal_code": "11201",
    "latitude": 40.6962,
    "longitude": -73.9969,
    "rating": 4.2,
    "reviews": 87,
    "description": "Experience the thrill of running across the iconic Brooklyn Bridge. Weekly group runs on Saturdays at 7:00 AM.",
    "email_1": "contact@bbrunners.org"
  },
  {
    "id": "fallback-3",
    "name": "Queens Marathon Club",
    "category": "Athletic club",
    "phone": "(555) 456-7890",
    "full_address": "890 Flushing Meadows Park, Queens, NY 11368",
    "city": "Queens",
    "postal_code": "11368",
    "latitude": 40.7505,
    "longitude": -73.8448,
    "rating": 4.7,
    "reviews": 156,
    "description": "Training for marathons and half-marathons. Professional coaching available. Meet Wednesdays and Saturdays.",
    "email_1": "training@qmc.org"
  },
  {
    "id": "fallback-4",
    "name": "Bronx Trail Runners",
    "category": "Athletic club",
    "phone": "(555) 321-0987",
    "full_address": "456 Van Cortlandt Park, Bronx, NY 10471",
    "city": "Bronx",
    "postal_code": "10471",
    "latitude": 40.8990,
    "longitude": -73.8959,
    "rating": 4.3,
    "reviews": 92,
    "description": "Trail running in beautiful Van Cortlandt Park. All skill levels welcome. Sunday morning runs at 8:30 AM.",
    "email_1": "trails@bronxrunners.com"
  },
  {
    "id": "fallback-5",
    "name": "Staten Island Running Group",
    "category": "Athletic club",
    "phone": "(555) 654-3210",
    "full_address": "789 Great Kills Park, Staten Island, NY 10308",
    "city": "Staten Island",
    "postal_code": "10308",
    "latitude": 40.5510,
    "longitude": -74.1267,
    "rating": 4.1,
    "reviews": 68,
    "description": "Scenic waterfront runs along Staten Island's beautiful coastline. Family-friendly group runs every weekend.",
    "email_1": "info@sirunning.org"
  },
  {
    "id": "fallback-6",
    "name": "Manhattan Night Runners",
    "category": "Athletic club",
    "phone": "(555) 789-0123",
    "full_address": "321 Riverside Drive, New York, NY 10025",
    "city": "New York",
    "postal_code": "10025",
    "latitude": 40.7969,
    "longitude": -73.9712,
    "rating": 4.4,
    "reviews": 134,
    "description": "Evening runs along the Hudson River. Perfect for working professionals. Weeknight runs at 7:00 PM.",
    "email_1": "evening@manhattanrunners.com"
  }
]